{"class":"DEVICES","devices":[{"class":"DEVICE","path":"/dev/ttyACM0","driver":"u-blox","subtype":"SW 1.00 (59842),HW 00070000","subtype1":"PROTVER 14.00,GPS;SBAS;GLO;QZSS","activated":"2022-10-20T20:32:52.071Z","flags":1,"native":1,"bps":9600,"parity":"N","stopbits":1,"cycle":1.00,"mincycle":0.02},{"class":"DEVICE","path":"/dev/pps0","driver":"PPS","activated":"2022-10-20T20:32:52.000Z"}]}
{"class":"WATCH","enable":true,"json":true,"nmea":false,"raw":0,"scaled":false,"timing":false,"split24":false,"pps":false}
{"class":"PPS","device":"/dev/pps0","real_sec":1666297973,"real_nsec":0,"clock_sec":1666297973,"clock_nsec":2999,"precision":-20}
{"class":"TPV","device":"/dev/ttyACM0","status":2,"mode":3,"time":"2022-10-20T20:32:53.000Z","leapseconds":18,"ept":0.005,"lat":37.270564937,"lon":-121.771497228,"altHAE":177.4042,"altMSL":209.3529,"alt":209.3529,"epx":2.678,"epy":2.761,"epv":10.079,"track":306.2339,"magtrack":319.2934,"magvar":13.1,"speed":0.170,"climb":-0.083,"eps":0.50,"epc":20.16,"ecefx":-2675849.16,"ecefy":-4320502.65,"ecefz":3841445.28,"ecefvx":0.00,"ecefvy":-0.06,"ecefvz":-0.01,"ecefpAcc":7.83,"ecefvAcc":0.50,"velN":0.101,"velE":-0.137,"velD":0.083,"geoidSep":-31.949,"eph":4.818,"sep":9.620}
{"class":"SKY","device":"/dev/ttyACM0","time":"2022-10-20T20:32:53.000Z","xdop":0.71,"ydop":0.74,"vdop":1.63,"tdop":0.97,"hdop":1.03,"gdop":2.16,"pdop":1.92,"nSat":17,"uSat":9,"satellites":[{"PRN":1,"el":54.0,"az":245.0,"ss":0.0,"used":false,"gnssid":0,"svid":1,"health":1},{"PRN":3,"el":53.0,"az":320.0,"ss":14.0,"used":false,"gnssid":0,"svid":3,"health":1},{"PRN":4,"el":31.0,"az":269.0,"ss":17.0,"used":true,"gnssid":0,"svid":4,"health":1},{"PRN":16,"el":2.0,"az":157.0,"ss":0.0,"used":false,"gnssid":0,"svid":16,"health":1},{"PRN":17,"el":2.0,"az":297.0,"ss":0.0,"used":false,"gnssid":0,"svid":17,"health":1},{"PRN":21,"el":42.0,"az":215.0,"ss":30.0,"used":true,"gnssid":0,"svid":21,"health":1},{"PRN":22,"el":42.0,"az":51.0,"ss":35.0,"used":true,"gnssid":0,"svid":22,"health":1},{"PRN":25,"el":6.0,"az":42.0,"ss":27.0,"used":true,"gnssid":0,"svid":25,"health":1},{"PRN":26,"el":19.0,"az":134.0,"ss":32.0,"used":true,"gnssid":0,"svid":26,"health":1},{"PRN":31,"el":59.0,"az":65.0,"ss":42.0,"used":true,"gnssid":0,"svid":31,"health":1},{"PRN":32,"el":16.0,"az":66.0,"ss":34.0,"used":true,"gnssid":0,"svid":32,"health":1},{"PRN":46,"el":46.0,"az":192.0,"ss":34.0,"used":true,"gnssid":1,"svid":133,"health":1},{"PRN":48,"el":47.0,"az":185.0,"ss":30.0,"used":true,"gnssid":1,"svid":135,"health":1},{"PRN":51,"el":44.0,"az":157.0,"ss":0.0,"used":false,"gnssid":1,"svid":138,"health":1},{"PRN":193,"az":0.0,"ss":0.0,"used":false,"gnssid":5,"svid":1,"health":1},{"PRN":194,"az":0.0,"ss":0.0,"used":false,"gnssid":5,"svid":2,"health":1},{"PRN":197,"az":0.0,"ss":0.0,"used":false,"gnssid":5,"svid":5,"health":1}]}
{"class":"PPS","device":"/dev/pps0","real_sec":1666297974,"real_nsec":0,"clock_sec":1666297973,"clock_nsec":999998976,"precision":-20}
{"class":"TPV","device":"/dev/ttyACM0","status":2,"mode":3,"time":"2022-10-20T20:32:54.000Z","leapseconds":18,"ept":0.005,"lat":37.270564937,"lon":-121.771497228,"altHAE":177.4042,"altMSL":209.3529,"alt":209.3529,"epx":2.678,"epy":2.761,"epv":10.079,"track":306.2339,"magtrack":319.2934,"magvar":13.1,"speed":0.170,"climb":-0.083,"eps":0.51,"epc":20.16,"ecefx":-2675849.15,"ecefy":-4320502.49,"ecefz":3841445.17,"ecefvx":-0.04,"ecefvy":0.12,"ecefvz":0.00,"ecefpAcc":7.78,"ecefvAcc":0.51,"velN":0.101,"velE":-0.137,"velD":0.083,"geoidSep":-31.949,"eph":4.818,"sep":9.620}
{"class":"SKY","device":"/dev/ttyACM0","time":"2022-10-20T20:32:54.000Z","xdop":0.71,"ydop":0.74,"vdop":1.63,"tdop":0.97,"hdop":1.03,"gdop":2.16,"pdop":1.93,"nSat":17,"uSat":9,"satellites":[{"PRN":1,"el":54.0,"az":245.0,"ss":0.0,"used":false,"gnssid":0,"svid":1,"health":1},{"PRN":3,"el":53.0,"az":320.0,"ss":13.0,"used":false,"gnssid":0,"svid":3,"health":1},{"PRN":4,"el":31.0,"az":269.0,"ss":18.0,"used":true,"gnssid":0,"svid":4,"health":1},{"PRN":16,"el":2.0,"az":157.0,"ss":0.0,"used":false,"gnssid":0,"svid":16,"health":1},{"PRN":17,"el":2.0,"az":297.0,"ss":0.0,"used":false,"gnssid":0,"svid":17,"health":1},{"PRN":21,"el":42.0,"az":215.0,"ss":30.0,"used":true,"gnssid":0,"svid":21,"health":1},{"PRN":22,"el":42.0,"az":51.0,"ss":35.0,"used":true,"gnssid":0,"svid":22,"health":1},{"PRN":25,"el":6.0,"az":42.0,"ss":27.0,"used":true,"gnssid":0,"svid":25,"health":1},{"PRN":26,"el":19.0,"az":134.0,"ss":31.0,"used":true,"gnssid":0,"svid":26,"health":1},{"PRN":31,"el":59.0,"az":65.0,"ss":42.0,"used":true,"gnssid":0,"svid":31,"health":1},{"PRN":32,"el":16.0,"az":66.0,"ss":34.0,"used":true,"gnssid":0,"svid":32,"health":1},{"PRN":46,"el":46.0,"az":192.0,"ss":34.0,"used":true,"gnssid":1,"svid":133,"health":1},{"PRN":48,"el":47.0,"az":185.0,"ss":30.0,"used":true,"gnssid":1,"svid":135,"health":1},{"PRN":51,"el":44.0,"az":157.0,"ss":0.0,"used":false,"gnssid":1,"svid":138,"health":1},{"PRN":193,"az":0.0,"ss":0.0,"used":false,"gnssid":5,"svid":1,"health":1},{"PRN":194,"az":0.0,"ss":0.0,"used":false,"gnssid":5,"svid":2,"health":1},{"PRN":197,"az":0.0,"ss":0.0,"used":false,"gnssid":5,"svid":5,"health":1}]}
{"class":"TPV","device":"/dev/ttyACM0","status":2,"mode":3,"time":"2022-10-20T20:32:54.000Z","leapseconds":18,"ept":0.005,"lat":37.270564937,"lon":-121.771497228,"altHAE":177.4042,"altMSL":209.3529,"alt":209.3529,"epx":2.678,"epy":2.761,"epv":10.079,"track":306.2339,"magtrack":319.2934,"magvar":13.1,"speed":0.170,"climb":-0.083,"eps":5.52,"epc":20.16,"ecefx":-2675849.15,"ecefy":-4320502.49,"ecefz":3841445.17,"ecefvx":-0.04,"ecefvy":0.12,"ecefvz":0.00,"ecefpAcc":7.78,"ecefvAcc":0.51,"velN":0.101,"velE":-0.137,"velD":0.083,"geoidSep":-31.949,"eph":4.818,"sep":9.620}
{"class":"PPS","device":"/dev/pps0","real_sec":1666297975,"real_nsec":0,"clock_sec":1666297975,"clock_nsec":1360,"precision":-20}
{"class":"TPV","device":"/dev/ttyACM0","status":2,"mode":3,"time":"2022-10-20T20:32:55.000Z","leapseconds":18,"ept":0.005,"lat":37.270564937,"lon":-121.771497228,"altHAE":177.4042,"altMSL":209.3529,"alt":209.3529,"epx":2.678,"epy":2.761,"epv":10.079,"track":306.2339,"magtrack":319.2934,"magvar":13.1,"speed":0.170,"climb":-0.083,"eps":0.45,"epc":20.16,"ecefx":-2675849.22,"ecefy":-4320502.30,"ecefz":3841445.12,"ecefvx":0.00,"ecefvy":0.06,"ecefvz":-0.03,"ecefpAcc":7.72,"ecefvAcc":0.45,"velN":0.101,"velE":-0.137,"velD":0.083,"geoidSep":-31.949,"eph":4.818,"sep":9.620}
{"class":"SKY","device":"/dev/ttyACM0","time":"2022-10-20T20:32:55.000Z","xdop":0.71,"ydop":0.74,"vdop":1.63,"tdop":0.97,"hdop":1.03,"gdop":2.16,"pdop":1.93,"nSat":17,"uSat":9,"satellites":[{"PRN":1,"el":54.0,"az":245.0,"ss":0.0,"used":false,"gnssid":0,"svid":1,"health":1},{"PRN":3,"el":53.0,"az":320.0,"ss":12.0,"used":false,"gnssid":0,"svid":3,"health":1},{"PRN":4,"el":31.0,"az":269.0,"ss":19.0,"used":true,"gnssid":0,"svid":4,"health":1},{"PRN":16,"el":2.0,"az":157.0,"ss":0.0,"used":false,"gnssid":0,"svid":16,"health":1},{"PRN":17,"el":2.0,"az":297.0,"ss":0.0,"used":false,"gnssid":0,"svid":17,"health":1},{"PRN":21,"el":42.0,"az":215.0,"ss":30.0,"used":true,"gnssid":0,"svid":21,"health":1},{"PRN":22,"el":41.0,"az":52.0,"ss":35.0,"used":true,"gnssid":0,"svid":22,"health":1},{"PRN":25,"el":6.0,"az":42.0,"ss":27.0,"used":true,"gnssid":0,"svid":25,"health":1},{"PRN":26,"el":19.0,"az":134.0,"ss":32.0,"used":true,"gnssid":0,"svid":26,"health":1},{"PRN":31,"el":59.0,"az":65.0,"ss":42.0,"used":true,"gnssid":0,"svid":31,"health":1},{"PRN":32,"el":16.0,"az":66.0,"ss":34.0,"used":true,"gnssid":0,"svid":32,"health":1},{"PRN":46,"el":46.0,"az":192.0,"ss":34.0,"used":true,"gnssid":1,"svid":133,"health":1},{"PRN":48,"el":47.0,"az":185.0,"ss":30.0,"used":true,"gnssid":1,"svid":135,"health":1},{"PRN":51,"el":44.0,"az":157.0,"ss":0.0,"used":false,"gnssid":1,"svid":138,"health":1},{"PRN":193,"az":0.0,"ss":0.0,"used":false,"gnssid":5,"svid":1,"health":1},{"PRN":194,"az":0.0,"ss":0.0,"used":false,"gnssid":5,"svid":2,"health":1},{"PRN":197,"az":0.0,"ss":0.0,"used":false,"gnssid":5,"svid":5,"health":1}]}
{"class":"PPS","device":"/dev/pps0","real_sec":1666297976,"real_nsec":0,"clock_sec":1666297975,"clock_nsec":999998446,"precision":-20}
{"class":"TPV","device":"/dev/ttyACM0","status":2,"mode":3,"time":"2022-10-20T20:32:56.000Z","leapseconds":18,"ept":0.005,"lat":37.270564937,"lon":-121.771497228,"altHAE":177.4042,"altMSL":209.3529,"alt":209.3529,"epx":2.674,"epy":2.773,"epv":10.079,"track":306.2339,"magtrack":319.2934,"magvar":13.1,"speed":0.170,"climb":-0.083,"eps":0.52,"epc":20.16,"ecefx":-2675849.31,"ecefy":-4320502.02,"ecefz":3841445.10,"ecefvx":0.04,"ecefvy":-0.08,"ecefvz":-0.02,"ecefpAcc":7.66,"ecefvAcc":0.52,"velN":0.101,"velE":-0.137,"velD":0.083,"geoidSep":-31.949,"eph":4.818,"sep":9.620}
{"class":"SKY","device":"/dev/ttyACM0","time":"2022-10-20T20:32:56.000Z","xdop":0.71,"ydop":0.74,"vdop":1.63,"tdop":0.97,"hdop":1.03,"gdop":2.16,"pdop":1.93,"nSat":17,"uSat":9,"satellites":[{"PRN":1,"el":54.0,"az":245.0,"ss":0.0,"used":false,"gnssid":0,"svid":1,"health":1},{"PRN":3,"el":53.0,"az":320.0,"ss":10.0,"used":false,"gnssid":0,"svid":3,"health":1},{"PRN":4,"el":31.0,"az":269.0,"ss":19.0,"used":true,"gnssid":0,"svid":4,"health":1},{"PRN":16,"el":2.0,"az":157.0,"ss":0.0,"used":false,"gnssid":0,"svid":16,"health":1},{"PRN":17,"el":2.0,"az":297.0,"ss":0.0,"used":false,"gnssid":0,"svid":17,"health":1},{"PRN":21,"el":42.0,"az":215.0,"ss":30.0,"used":true,"gnssid":0,"svid":21,"health":1},{"PRN":22,"el":41.0,"az":52.0,"ss":35.0,"used":true,"gnssid":0,"svid":22,"health":1},{"PRN":25,"el":6.0,"az":42.0,"ss":27.0,"used":true,"gnssid":0,"svid":25,"health":1},{"PRN":26,"el":19.0,"az":134.0,"ss":32.0,"used":true,"gnssid":0,"svid":26,"health":1},{"PRN":31,"el":59.0,"az":65.0,"ss":42.0,"used":true,"gnssid":0,"svid":31,"health":1},{"PRN":32,"el":16.0,"az":66.0,"ss":34.0,"used":true,"gnssid":0,"svid":32,"health":1},{"PRN":46,"el":46.0,"az":192.0,"ss":34.0,"used":true,"gnssid":1,"svid":133,"health":1},{"PRN":48,"el":47.0,"az":185.0,"ss":30.0,"used":true,"gnssid":1,"svid":135,"health":1},{"PRN":51,"el":44.0,"az":157.0,"ss":0.0,"used":false,"gnssid":1,"svid":138,"health":1},{"PRN":194,"az":0.0,"ss":0.0,"used":false,"gnssid":5,"svid":2,"health":1},{"PRN":195,"az":0.0,"ss":0.0,"used":false,"gnssid":5,"svid":3,"health":1},{"PRN":197,"az":0.0,"ss":0.0,"used":false,"gnssid":5,"svid":5,"health":1}]}
{"class":"TPV","device":"/dev/ttyACM0","status":2,"mode":3,"time":"2022-10-20T20:32:56.000Z","leapseconds":18,"ept":0.005,"lat":37.270564937,"lon":-121.771497228,"altHAE":177.4042,"altMSL":209.3529,"alt":209.3529,"epx":2.674,"epy":2.773,"epv":10.079,"track":306.2339,"magtrack":319.2934,"magvar":13.1,"speed":0.170,"climb":-0.083,"eps":5.55,"epc":20.16,"ecefx":-2675849.31,"ecefy":-4320502.02,"ecefz":3841445.10,"ecefvx":0.04,"ecefvy":-0.08,"ecefvz":-0.02,"ecefpAcc":7.66,"ecefvAcc":0.52,"velN":0.101,"velE":-0.137,"velD":0.083,"geoidSep":-31.949,"eph":4.818,"sep":9.620}
{"class":"PPS","device":"/dev/pps0","real_sec":1666297977,"real_nsec":0,"clock_sec":1666297976,"clock_nsec":999999123,"precision":-20}
{"class":"TPV","device":"/dev/ttyACM0","status":2,"mode":3,"time":"2022-10-20T20:32:57.000Z","leapseconds":18,"ept":0.005,"lat":37.270564937,"lon":-121.771497228,"altHAE":177.4042,"altMSL":209.3529,"alt":209.3529,"epx":2.674,"epy":2.773,"epv":10.079,"track":306.2339,"magtrack":319.2934,"magvar":13.1,"speed":0.170,"climb":-0.083,"eps":0.46,"epc":20.16,"ecefx":-2675849.32,"ecefy":-4320502.01,"ecefz":3841445.07,"ecefvx":0.00,"ecefvy":-0.01,"ecefvz":0.00,"ecefpAcc":7.62,"ecefvAcc":0.46,"velN":0.101,"velE":-0.137,"velD":0.083,"geoidSep":-31.949,"eph":4.818,"sep":9.620}
{"class":"SKY","device":"/dev/ttyACM0","time":"2022-10-20T20:32:57.000Z","xdop":0.71,"ydop":0.74,"vdop":1.63,"tdop":0.97,"hdop":1.03,"gdop":2.16,"pdop":1.93,"nSat":17,"uSat":9,"satellites":[{"PRN":1,"el":54.0,"az":245.0,"ss":0.0,"used":false,"gnssid":0,"svid":1,"health":1},{"PRN":3,"el":53.0,"az":320.0,"ss":10.0,"used":false,"gnssid":0,"svid":3,"health":1},{"PRN":4,"el":31.0,"az":269.0,"ss":19.0,"used":true,"gnssid":0,"svid":4,"health":1},{"PRN":16,"el":2.0,"az":157.0,"ss":0.0,"used":false,"gnssid":0,"svid":16,"health":1},{"PRN":17,"el":2.0,"az":297.0,"ss":0.0,"used":false,"gnssid":0,"svid":17,"health":1},{"PRN":21,"el":42.0,"az":215.0,"ss":30.0,"used":true,"gnssid":0,"svid":21,"health":1},{"PRN":22,"el":41.0,"az":52.0,"ss":35.0,"used":true,"gnssid":0,"svid":22,"health":1},{"PRN":25,"el":6.0,"az":42.0,"ss":27.0,"used":true,"gnssid":0,"svid":25,"health":1},{"PRN":26,"el":19.0,"az":134.0,"ss":31.0,"used":true,"gnssid":0,"svid":26,"health":1},{"PRN":31,"el":59.0,"az":65.0,"ss":42.0,"used":true,"gnssid":0,"svid":31,"health":1},{"PRN":32,"el":16.0,"az":66.0,"ss":34.0,"used":true,"gnssid":0,"svid":32,"health":1},{"PRN":46,"el":46.0,"az":192.0,"ss":34.0,"used":true,"gnssid":1,"svid":133,"health":1},{"PRN":48,"el":47.0,"az":185.0,"ss":30.0,"used":true,"gnssid":1,"svid":135,"health":1},{"PRN":51,"el":44.0,"az":157.0,"ss":0.0,"used":false,"gnssid":1,"svid":138,"health":1},{"PRN":194,"az":0.0,"ss":0.0,"used":false,"gnssid":5,"svid":2,"health":1},{"PRN":195,"az":0.0,"ss":0.0,"used":false,"gnssid":5,"svid":3,"health":1},{"PRN":197,"az":0.0,"ss":0.0,"used":false,"gnssid":5,"svid":5,"health":1}]}
{"class":"PPS","device":"/dev/pps0","real_sec":1666297978,"real_nsec":0,"clock_sec":1666297977,"clock_nsec":999998542,"precision":-20}
{"class":"TPV","device":"/dev/ttyACM0","status":2,"mode":3,"time":"2022-10-20T20:32:58.000Z","leapseconds":18,"ept":0.005,"lat":37.270564937,"lon":-121.771497228,"altHAE":177.4042,"altMSL":209.3529,"alt":209.3529,"epx":2.674,"epy":2.773,"epv":10.079,"track":306.2339,"magtrack":319.2934,"magvar":13.1,"speed":0.170,"climb":-0.083,"eps":0.49,"epc":20.16,"ecefx":-2675849.33,"ecefy":-4320501.79,"ecefz":3841444.92,"ecefvx":-0.04,"ecefvy":0.15,"ecefvz":-0.03,"ecefpAcc":7.57,"ecefvAcc":0.49,"velN":0.101,"velE":-0.137,"velD":0.083,"geoidSep":-31.949,"eph":4.818,"sep":9.620}
{"class":"SKY","device":"/dev/ttyACM0","time":"2022-10-20T20:32:58.000Z","xdop":0.71,"ydop":0.74,"vdop":1.63,"tdop":0.97,"hdop":1.03,"gdop":2.16,"pdop":1.93,"nSat":17,"uSat":9,"satellites":[{"PRN":1,"el":54.0,"az":245.0,"ss":0.0,"used":false,"gnssid":0,"svid":1,"health":1},{"PRN":3,"el":53.0,"az":320.0,"ss":10.0,"used":false,"gnssid":0,"svid":3,"health":1},{"PRN":4,"el":31.0,"az":269.0,"ss":19.0,"used":true,"gnssid":0,"svid":4,"health":1},{"PRN":16,"el":2.0,"az":157.0,"ss":0.0,"used":false,"gnssid":0,"svid":16,"health":1},{"PRN":17,"el":2.0,"az":297.0,"ss":0.0,"used":false,"gnssid":0,"svid":17,"health":1},{"PRN":21,"el":42.0,"az":215.0,"ss":30.0,"used":true,"gnssid":0,"svid":21,"health":1},{"PRN":22,"el":41.0,"az":52.0,"ss":35.0,"used":true,"gnssid":0,"svid":22,"health":1},{"PRN":25,"el":6.0,"az":41.0,"ss":27.0,"used":true,"gnssid":0,"svid":25,"health":1},{"PRN":26,"el":19.0,"az":134.0,"ss":32.0,"used":true,"gnssid":0,"svid":26,"health":1},{"PRN":31,"el":59.0,"az":65.0,"ss":42.0,"used":true,"gnssid":0,"svid":31,"health":1},{"PRN":32,"el":16.0,"az":66.0,"ss":34.0,"used":true,"gnssid":0,"svid":32,"health":1},{"PRN":46,"el":46.0,"az":192.0,"ss":34.0,"used":true,"gnssid":1,"svid":133,"health":1},{"PRN":48,"el":47.0,"az":185.0,"ss":30.0,"used":true,"gnssid":1,"svid":135,"health":1},{"PRN":51,"el":44.0,"az":157.0,"ss":0.0,"used":false,"gnssid":1,"svid":138,"health":1},{"PRN":194,"az":0.0,"ss":0.0,"used":false,"gnssid":5,"svid":2,"health":1},{"PRN":195,"az":0.0,"ss":0.0,"used":false,"gnssid":5,"svid":3,"health":1},{"PRN":197,"az":0.0,"ss":0.0,"used":false,"gnssid":5,"svid":5,"health":1}]}
{"class":"TPV","device":"/dev/ttyACM0","status":2,"mode":3,"time":"2022-10-20T20:32:58.000Z","leapseconds":18,"ept":0.005,"lat":37.270564937,"lon":-121.771497228,"altHAE":177.4042,"altMSL":209.3529,"alt":209.3529,"epx":2.671,"epy":2.763,"epv":10.079,"track":306.2339,"magtrack":319.2934,"magvar":13.1,"speed":0.170,"climb":-0.083,"eps":5.54,"epc":20.16,"ecefx":-2675849.33,"ecefy":-4320501.79,"ecefz":3841444.92,"ecefvx":-0.04,"ecefvy":0.15,"ecefvz":-0.03,"ecefpAcc":7.57,"ecefvAcc":0.49,"velN":0.101,"velE":-0.137,"velD":0.083,"geoidSep":-31.949,"eph":4.818,"sep":9.620}
{"class":"PPS","device":"/dev/pps0","real_sec":1666297979,"real_nsec":0,"clock_sec":1666297979,"clock_nsec":1238,"precision":-20}
{"class":"TPV","device":"/dev/ttyACM0","status":2,"mode":3,"time":"2022-10-20T20:32:59.000Z","leapseconds":18,"ept":0.005,"lat":37.270564937,"lon":-121.771497228,"altHAE":177.4042,"altMSL":209.3529,"alt":209.3529,"epx":2.671,"epy":2.763,"epv":10.079,"track":306.2339,"magtrack":319.2934,"magvar":13.1,"speed":0.170,"climb":-0.083,"eps":0.43,"epc":20.16,"ecefx":-2675849.41,"ecefy":-4320501.40,"ecefz":3841444.91,"ecefvx":0.01,"ecefvy":0.08,"ecefvz":-0.04,"ecefpAcc":7.53,"ecefvAcc":0.43,"velN":0.101,"velE":-0.137,"velD":0.083,"geoidSep":-31.949,"eph":4.818,"sep":9.620}
{"class":"SKY","device":"/dev/ttyACM0","time":"2022-10-20T20:32:59.000Z","xdop":0.71,"ydop":0.75,"vdop":1.63,"tdop":0.97,"hdop":1.03,"gdop":2.16,"pdop":1.93,"nSat":17,"uSat":9,"satellites":[{"PRN":1,"el":54.0,"az":245.0,"ss":0.0,"used":false,"gnssid":0,"svid":1,"health":1},{"PRN":3,"el":53.0,"az":320.0,"ss":10.0,"used":false,"gnssid":0,"svid":3,"health":1},{"PRN":4,"el":31.0,"az":269.0,"ss":19.0,"used":true,"gnssid":0,"svid":4,"health":1},{"PRN":16,"el":2.0,"az":157.0,"ss":0.0,"used":false,"gnssid":0,"svid":16,"health":1},{"PRN":17,"el":2.0,"az":297.0,"ss":0.0,"used":false,"gnssid":0,"svid":17,"health":1},{"PRN":21,"el":42.0,"az":215.0,"ss":30.0,"used":true,"gnssid":0,"svid":21,"health":1},{"PRN":22,"el":41.0,"az":52.0,"ss":34.0,"used":true,"gnssid":0,"svid":22,"health":1},{"PRN":25,"el":6.0,"az":41.0,"ss":27.0,"used":true,"gnssid":0,"svid":25,"health":1},{"PRN":26,"el":20.0,"az":133.0,"ss":32.0,"used":true,"gnssid":0,"svid":26,"health":1},{"PRN":31,"el":59.0,"az":65.0,"ss":42.0,"used":true,"gnssid":0,"svid":31,"health":1},{"PRN":32,"el":16.0,"az":66.0,"ss":34.0,"used":true,"gnssid":0,"svid":32,"health":1},{"PRN":46,"el":46.0,"az":192.0,"ss":34.0,"used":true,"gnssid":1,"svid":133,"health":1},{"PRN":48,"el":47.0,"az":185.0,"ss":30.0,"used":true,"gnssid":1,"svid":135,"health":1},{"PRN":51,"el":44.0,"az":157.0,"ss":0.0,"used":false,"gnssid":1,"svid":138,"health":1},{"PRN":194,"az":0.0,"ss":0.0,"used":false,"gnssid":5,"svid":2,"health":1},{"PRN":195,"az":0.0,"ss":0.0,"used":false,"gnssid":5,"svid":3,"health":1},{"PRN":197,"az":0.0,"ss":0.0,"used":false,"gnssid":5,"svid":5,"health":1}]}
{"class":"PPS","device":"/dev/pps0","real_sec":1666297980,"real_nsec":0,"clock_sec":1666297979,"clock_nsec":999999027,"precision":-20}
{"class":"TPV","device":"/dev/ttyACM0","status":2,"mode":3,"time":"2022-10-20T20:33:00.000Z","leapseconds":18,"ept":0.005,"lat":37.270564937,"lon":-121.771497228,"altHAE":177.4042,"altMSL":209.3529,"alt":209.3529,"epx":2.662,"epy":2.795,"epv":10.079,"track":306.2339,"magtrack":319.2934,"magvar":13.1,"speed":0.170,"climb":-0.083,"eps":0.55,"epc":20.16,"ecefx":-2675849.47,"ecefy":-4320501.08,"ecefz":3841444.84,"ecefvx":0.09,"ecefvy":-0.13,"ecefvz":-0.05,"ecefpAcc":7.50,"ecefvAcc":0.55,"velN":0.101,"velE":-0.137,"velD":0.083,"geoidSep":-31.949,"eph":4.818,"sep":9.620}
{"class":"SKY","device":"/dev/ttyACM0","time":"2022-10-20T20:33:00.000Z","xdop":0.71,"ydop":0.75,"vdop":1.63,"tdop":0.97,"hdop":1.03,"gdop":2.16,"pdop":1.93,"nSat":17,"uSat":9,"satellites":[{"PRN":1,"el":54.0,"az":245.0,"ss":0.0,"used":false,"gnssid":0,"svid":1,"health":1},{"PRN":3,"el":53.0,"az":320.0,"ss":8.0,"used":false,"gnssid":0,"svid":3,"health":1},{"PRN":4,"el":31.0,"az":269.0,"ss":19.0,"used":true,"gnssid":0,"svid":4,"health":1},{"PRN":16,"el":2.0,"az":157.0,"ss":0.0,"used":false,"gnssid":0,"svid":16,"health":1},{"PRN":17,"el":2.0,"az":297.0,"ss":0.0,"used":false,"gnssid":0,"svid":17,"health":1},{"PRN":21,"el":42.0,"az":215.0,"ss":29.0,"used":true,"gnssid":0,"svid":21,"health":1},{"PRN":22,"el":41.0,"az":52.0,"ss":35.0,"used":true,"gnssid":0,"svid":22,"health":1},{"PRN":25,"el":6.0,"az":41.0,"ss":27.0,"used":true,"gnssid":0,"svid":25,"health":1},{"PRN":26,"el":20.0,"az":133.0,"ss":32.0,"used":true,"gnssid":0,"svid":26,"health":1},{"PRN":31,"el":59.0,"az":65.0,"ss":43.0,"used":true,"gnssid":0,"svid":31,"health":1},{"PRN":32,"el":16.0,"az":66.0,"ss":34.0,"used":true,"gnssid":0,"svid":32,"health":1},{"PRN":46,"el":46.0,"az":192.0,"ss":34.0,"used":true,"gnssid":1,"svid":133,"health":1},{"PRN":48,"el":47.0,"az":185.0,"ss":30.0,"used":true,"gnssid":1,"svid":135,"health":1},{"PRN":51,"el":44.0,"az":157.0,"ss":0.0,"used":false,"gnssid":1,"svid":138,"health":1},{"PRN":194,"az":0.0,"ss":0.0,"used":false,"gnssid":5,"svid":2,"health":1},{"PRN":195,"az":0.0,"ss":0.0,"used":false,"gnssid":5,"svid":3,"health":1},{"PRN":197,"az":0.0,"ss":0.0,"used":false,"gnssid":5,"svid":5,"health":1}]}
{"class":"TPV","device":"/dev/ttyACM0","status":2,"mode":3,"time":"2022-10-20T20:33:00.000Z","leapseconds":18,"ept":0.005,"lat":37.270564937,"lon":-121.771497228,"altHAE":177.4042,"altMSL":209.3529,"alt":209.3529,"epx":2.662,"epy":2.795,"epv":10.079,"track":306.2339,"magtrack":319.2934,"magvar":13.1,"speed":0.170,"climb":-0.083,"eps":5.59,"epc":20.16,"ecefx":-2675849.47,"ecefy":-4320501.08,"ecefz":3841444.84,"ecefvx":0.09,"ecefvy":-0.13,"ecefvz":-0.05,"ecefpAcc":7.50,"ecefvAcc":0.55,"velN":0.101,"velE":-0.137,"velD":0.083,"geoidSep":-31.949,"eph":4.818,"sep":9.620}
{"class":"PPS","device":"/dev/pps0","real_sec":1666297981,"real_nsec":0,"clock_sec":1666297981,"clock_nsec":1740,"precision":-20}
{"class":"TPV","device":"/dev/ttyACM0","status":2,"mode":3,"time":"2022-10-20T20:33:01.000Z","leapseconds":18,"ept":0.005,"lat":37.270564937,"lon":-121.771497228,"altHAE":177.4042,"altMSL":209.3529,"alt":209.3529,"epx":2.662,"epy":2.795,"epv":10.079,"track":306.2339,"magtrack":319.2934,"magvar":13.1,"speed":0.170,"climb":-0.083,"eps":0.52,"epc":20.16,"ecefx":-2675849.49,"ecefy":-4320500.63,"ecefz":3841444.66,"ecefvx":-0.01,"ecefvy":0.03,"ecefvz":0.00,"ecefpAcc":7.46,"ecefvAcc":0.52,"velN":0.101,"velE":-0.137,"velD":0.083,"geoidSep":-31.949,"eph":4.818,"sep":9.620}
{"class":"SKY","device":"/dev/ttyACM0","time":"2022-10-20T20:33:01.000Z","xdop":0.71,"ydop":0.75,"vdop":1.63,"tdop":0.97,"hdop":1.03,"gdop":2.16,"pdop":1.93,"nSat":17,"uSat":9,"satellites":[{"PRN":1,"el":54.0,"az":245.0,"ss":0.0,"used":false,"gnssid":0,"svid":1,"health":1},{"PRN":3,"el":53.0,"az":320.0,"ss":8.0,"used":false,"gnssid":0,"svid":3,"health":1},{"PRN":4,"el":31.0,"az":269.0,"ss":19.0,"used":true,"gnssid":0,"svid":4,"health":1},{"PRN":16,"el":2.0,"az":157.0,"ss":0.0,"used":false,"gnssid":0,"svid":16,"health":1},{"PRN":17,"el":2.0,"az":297.0,"ss":0.0,"used":false,"gnssid":0,"svid":17,"health":1},{"PRN":21,"el":42.0,"az":215.0,"ss":29.0,"used":true,"gnssid":0,"svid":21,"health":1},{"PRN":22,"el":41.0,"az":52.0,"ss":34.0,"used":true,"gnssid":0,"svid":22,"health":1},{"PRN":25,"el":6.0,"az":41.0,"ss":27.0,"used":true,"gnssid":0,"svid":25,"health":1},{"PRN":26,"el":20.0,"az":133.0,"ss":32.0,"used":true,"gnssid":0,"svid":26,"health":1},{"PRN":31,"el":59.0,"az":65.0,"ss":43.0,"used":true,"gnssid":0,"svid":31,"health":1},{"PRN":32,"el":16.0,"az":66.0,"ss":34.0,"used":true,"gnssid":0,"svid":32,"health":1},{"PRN":46,"el":46.0,"az":192.0,"ss":34.0,"used":true,"gnssid":1,"svid":133,"health":1},{"PRN":48,"el":47.0,"az":185.0,"ss":30.0,"used":true,"gnssid":1,"svid":135,"health":1},{"PRN":51,"el":44.0,"az":157.0,"ss":0.0,"used":false,"gnssid":1,"svid":138,"health":1},{"PRN":194,"az":0.0,"ss":0.0,"used":false,"gnssid":5,"svid":2,"health":1},{"PRN":195,"az":0.0,"ss":0.0,"used":false,"gnssid":5,"svid":3,"health":1},{"PRN":197,"az":0.0,"ss":0.0,"used":false,"gnssid":5,"svid":5,"health":1}]}
{"class":"PPS","device":"/dev/pps0","real_sec":1666297982,"real_nsec":0,"clock_sec":1666297981,"clock_nsec":999999526,"precision":-20}
{"class":"TPV","device":"/dev/ttyACM0","status":2,"mode":3,"time":"2022-10-20T20:33:02.000Z","leapseconds":18,"ept":0.005,"lat":37.270564937,"lon":-121.771497228,"altHAE":177.4042,"altMSL":209.3529,"alt":209.3529,"epx":2.662,"epy":2.795,"epv":10.079,"track":306.2339,"magtrack":319.2934,"magvar":13.1,"speed":0.170,"climb":-0.083,"eps":0.51,"epc":20.16,"ecefx":-2675849.54,"ecefy":-4320500.27,"ecefz":3841444.54,"ecefvx":-0.05,"ecefvy":0.16,"ecefvz":-0.01,"ecefpAcc":7.44,"ecefvAcc":0.51,"velN":0.101,"velE":-0.137,"velD":0.083,"geoidSep":-31.949,"eph":4.818,"sep":9.620}
{"class":"SKY","device":"/dev/ttyACM0","time":"2022-10-20T20:33:02.000Z","xdop":0.71,"ydop":0.75,"vdop":1.63,"tdop":0.97,"hdop":1.03,"gdop":2.16,"pdop":1.93,"nSat":17,"uSat":9,"satellites":[{"PRN":1,"el":54.0,"az":245.0,"ss":25.0,"used":false,"gnssid":0,"svid":1,"health":1},{"PRN":3,"el":53.0,"az":320.0,"ss":19.0,"used":false,"gnssid":0,"svid":3,"health":1},{"PRN":4,"el":31.0,"az":269.0,"ss":18.0,"used":true,"gnssid":0,"svid":4,"health":1},{"PRN":16,"el":2.0,"az":157.0,"ss":0.0,"used":false,"gnssid":0,"svid":16,"health":1},{"PRN":17,"el":2.0,"az":297.0,"ss":0.0,"used":false,"gnssid":0,"svid":17,"health":1},{"PRN":21,"el":42.0,"az":215.0,"ss":29.0,"used":true,"gnssid":0,"svid":21,"health":1},{"PRN":22,"el":41.0,"az":52.0,"ss":34.0,"used":true,"gnssid":0,"svid":22,"health":1},{"PRN":25,"el":6.0,"az":41.0,"ss":27.0,"used":true,"gnssid":0,"svid":25,"health":1},{"PRN":26,"el":20.0,"az":133.0,"ss":32.0,"used":true,"gnssid":0,"svid":26,"health":1},{"PRN":31,"el":59.0,"az":65.0,"ss":43.0,"used":true,"gnssid":0,"svid":31,"health":1},{"PRN":32,"el":16.0,"az":66.0,"ss":34.0,"used":true,"gnssid":0,"svid":32,"health":1},{"PRN":46,"el":46.0,"az":192.0,"ss":34.0,"used":true,"gnssid":1,"svid":133,"health":1},{"PRN":48,"el":47.0,"az":185.0,"ss":30.0,"used":true,"gnssid":1,"svid":135,"health":1},{"PRN":51,"el":44.0,"az":157.0,"ss":0.0,"used":false,"gnssid":1,"svid":138,"health":1},{"PRN":194,"az":0.0,"ss":0.0,"used":false,"gnssid":5,"svid":2,"health":1},{"PRN":195,"az":0.0,"ss":0.0,"used":false,"gnssid":5,"svid":3,"health":1},{"PRN":197,"az":0.0,"ss":0.0,"used":false,"gnssid":5,"svid":5,"health":1}]}
{"class":"TPV","device":"/dev/ttyACM0","status":2,"mode":3,"time":"2022-10-20T20:33:02.000Z","leapseconds":18,"ept":0.005,"lat":37.270564937,"lon":-121.771497228,"altHAE":177.4042,"altMSL":209.3529,"alt":209.3529,"epx":2.662,"epy":2.795,"epv":10.079,"track":306.2339,"magtrack":319.2934,"magvar":13.1,"speed":0.170,"climb":-0.083,"eps":5.59,"epc":20.16,"ecefx":-2675849.54,"ecefy":-4320500.27,"ecefz":3841444.54,"ecefvx":-0.05,"ecefvy":0.16,"ecefvz":-0.01,"ecefpAcc":7.44,"ecefvAcc":0.51,"velN":0.101,"velE":-0.137,"velD":0.083,"geoidSep":-31.949,"eph":4.818,"sep":9.620}
{"class":"PPS","device":"/dev/pps0","real_sec":1666297983,"real_nsec":0,"clock_sec":1666297982,"clock_nsec":999998405,"precision":-20}
{"class":"TPV","device":"/dev/ttyACM0","status":2,"mode":3,"time":"2022-10-20T20:33:03.000Z","leapseconds":18,"ept":0.005,"lat":37.270564937,"lon":-121.771497228,"altHAE":177.4042,"altMSL":209.3529,"alt":209.3529,"epx":2.662,"epy":2.795,"epv":10.079,"track":306.2339,"magtrack":319.2934,"magvar":13.1,"speed":0.170,"climb":-0.083,"eps":0.47,"epc":20.16,"ecefx":-2675849.60,"ecefy":-4320499.77,"ecefz":3841444.42,"ecefvx":0.00,"ecefvy":0.14,"ecefvz":-0.04,"ecefpAcc":7.41,"ecefvAcc":0.47,"velN":0.101,"velE":-0.137,"velD":0.083,"geoidSep":-31.949,"eph":4.818,"sep":9.620}
{"class":"SKY","device":"/dev/ttyACM0","time":"2022-10-20T20:33:03.000Z","xdop":0.71,"ydop":0.75,"vdop":1.63,"tdop":0.97,"hdop":1.03,"gdop":2.16,"pdop":1.93,"nSat":17,"uSat":9,"satellites":[{"PRN":1,"el":54.0,"az":245.0,"ss":23.0,"used":false,"gnssid":0,"svid":1,"health":1},{"PRN":3,"el":53.0,"az":320.0,"ss":17.0,"used":false,"gnssid":0,"svid":3,"health":1},{"PRN":4,"el":31.0,"az":269.0,"ss":18.0,"used":true,"gnssid":0,"svid":4,"health":1},{"PRN":16,"el":2.0,"az":157.0,"ss":0.0,"used":false,"gnssid":0,"svid":16,"health":1},{"PRN":17,"el":2.0,"az":297.0,"ss":0.0,"used":false,"gnssid":0,"svid":17,"health":1},{"PRN":21,"el":42.0,"az":215.0,"ss":29.0,"used":true,"gnssid":0,"svid":21,"health":1},{"PRN":22,"el":41.0,"az":52.0,"ss":34.0,"used":true,"gnssid":0,"svid":22,"health":1},{"PRN":25,"el":6.0,"az":41.0,"ss":27.0,"used":true,"gnssid":0,"svid":25,"health":1},{"PRN":26,"el":20.0,"az":133.0,"ss":32.0,"used":true,"gnssid":0,"svid":26,"health":1},{"PRN":31,"el":58.0,"az":65.0,"ss":43.0,"used":true,"gnssid":0,"svid":31,"health":1},{"PRN":32,"el":16.0,"az":66.0,"ss":34.0,"used":true,"gnssid":0,"svid":32,"health":1},{"PRN":46,"el":46.0,"az":192.0,"ss":34.0,"used":true,"gnssid":1,"svid":133,"health":1},{"PRN":48,"el":47.0,"az":185.0,"ss":30.0,"used":true,"gnssid":1,"svid":135,"health":1},{"PRN":51,"el":44.0,"az":157.0,"ss":0.0,"used":false,"gnssid":1,"svid":138,"health":1},{"PRN":194,"az":0.0,"ss":0.0,"used":false,"gnssid":5,"svid":2,"health":1},{"PRN":195,"az":0.0,"ss":0.0,"used":false,"gnssid":5,"svid":3,"health":1},{"PRN":197,"az":0.0,"ss":0.0,"used":false,"gnssid":5,"svid":5,"health":1}]}
{"class":"PPS","device":"/dev/pps0","real_sec":1666297984,"real_nsec":0,"clock_sec":1666297983,"clock_nsec":999998432,"precision":-20}
{"class":"TPV","device":"/dev/ttyACM0","status":2,"mode":3,"time":"2022-10-20T20:33:04.000Z","leapseconds":18,"ept":0.005,"lat":37.270564937,"lon":-121.771497228,"altHAE":177.4042,"altMSL":209.3529,"alt":209.3529,"epx":2.660,"epy":2.798,"epv":10.079,"track":306.2339,"magtrack":319.2934,"magvar":13.1,"speed":0.170,"climb":-0.083,"eps":0.45,"epc":20.16,"ecefx":-2675849.63,"ecefy":-4320499.50,"ecefz":3841444.36,"ecefvx":0.04,"ecefvy":-0.02,"ecefvz":-0.04,"ecefpAcc":7.38,"ecefvAcc":0.45,"velN":0.101,"velE":-0.137,"velD":0.083,"geoidSep":-31.949,"eph":4.818,"sep":9.620}
{"class":"SKY","device":"/dev/ttyACM0","time":"2022-10-20T20:33:04.000Z","xdop":0.71,"ydop":0.75,"vdop":1.63,"tdop":0.97,"hdop":1.03,"gdop":2.16,"pdop":1.93,"nSat":17,"uSat":9,"satellites":[{"PRN":1,"el":54.0,"az":245.0,"ss":0.0,"used":false,"gnssid":0,"svid":1,"health":1},{"PRN":3,"el":53.0,"az":320.0,"ss":15.0,"used":false,"gnssid":0,"svid":3,"health":1},{"PRN":4,"el":31.0,"az":269.0,"ss":19.0,"used":true,"gnssid":0,"svid":4,"health":1},{"PRN":16,"el":2.0,"az":157.0,"ss":0.0,"used":false,"gnssid":0,"svid":16,"health":1},{"PRN":17,"el":2.0,"az":297.0,"ss":0.0,"used":false,"gnssid":0,"svid":17,"health":1},{"PRN":21,"el":42.0,"az":215.0,"ss":29.0,"used":true,"gnssid":0,"svid":21,"health":1},{"PRN":22,"el":41.0,"az":52.0,"ss":34.0,"used":true,"gnssid":0,"svid":22,"health":1},{"PRN":25,"el":6.0,"az":41.0,"ss":27.0,"used":true,"gnssid":0,"svid":25,"health":1},{"PRN":26,"el":20.0,"az":133.0,"ss":32.0,"used":true,"gnssid":0,"svid":26,"health":1},{"PRN":31,"el":58.0,"az":65.0,"ss":43.0,"used":true,"gnssid":0,"svid":31,"health":1},{"PRN":32,"el":15.0,"az":67.0,"ss":34.0,"used":true,"gnssid":0,"svid":32,"health":1},{"PRN":46,"el":46.0,"az":192.0,"ss":34.0,"used":true,"gnssid":1,"svid":133,"health":1},{"PRN":48,"el":47.0,"az":185.0,"ss":30.0,"used":true,"gnssid":1,"svid":135,"health":1},{"PRN":51,"el":44.0,"az":157.0,"ss":0.0,"used":false,"gnssid":1,"svid":138,"health":1},{"PRN":194,"az":0.0,"ss":0.0,"used":false,"gnssid":5,"svid":2,"health":1},{"PRN":195,"az":0.0,"ss":0.0,"used":false,"gnssid":5,"svid":3,"health":1},{"PRN":197,"az":0.0,"ss":0.0,"used":false,"gnssid":5,"svid":5,"health":1}]}
{"class":"TPV","device":"/dev/ttyACM0","status":2,"mode":3,"time":"2022-10-20T20:33:04.000Z","leapseconds":18,"ept":0.005,"lat":37.270564937,"lon":-121.771497228,"altHAE":177.4042,"altMSL":209.3529,"alt":209.3529,"epx":2.657,"epy":2.800,"epv":10.079,"track":306.2339,"magtrack":319.2934,"magvar":13.1,"speed":0.170,"climb":-0.083,"eps":5.60,"epc":20.16,"ecefx":-2675849.63,"ecefy":-4320499.50,"ecefz":3841444.36,"ecefvx":0.04,"ecefvy":-0.02,"ecefvz":-0.04,"ecefpAcc":7.38,"ecefvAcc":0.45,"velN":0.101,"velE":-0.137,"velD":0.083,"geoidSep":-31.949,"eph":4.818,"sep":9.620}
{"class":"PPS","device":"/dev/pps0","real_sec":1666297985,"real_nsec":0,"clock_sec":1666297984,"clock_nsec":999998533,"precision":-20}
{"class":"TPV","device":"/dev/ttyACM0","status":2,"mode":3,"time":"2022-10-20T20:33:05.000Z","leapseconds":18,"ept":0.005,"lat":37.270564937,"lon":-121.771497228,"altHAE":177.4042,"altMSL":209.3529,"alt":209.3529,"epx":2.657,"epy":2.800,"epv":10.079,"track":306.2339,"magtrack":319.2934,"magvar":13.1,"speed":0.170,"climb":-0.083,"eps":0.46,"epc":20.16,"ecefx":-2675849.68,"ecefy":-4320499.27,"ecefz":3841444.36,"ecefvx":-0.01,"ecefvy":0.06,"ecefvz":-0.02,"ecefpAcc":7.35,"ecefvAcc":0.46,"velN":0.101,"velE":-0.137,"velD":0.083,"geoidSep":-31.949,"eph":4.818,"sep":9.620}
{"class":"SKY","device":"/dev/ttyACM0","time":"2022-10-20T20:33:05.000Z","xdop":0.71,"ydop":0.75,"vdop":1.63,"tdop":0.97,"hdop":1.03,"gdop":2.16,"pdop":1.93,"nSat":17,"uSat":9,"satellites":[{"PRN":1,"el":54.0,"az":245.0,"ss":0.0,"used":false,"gnssid":0,"svid":1,"health":1},{"PRN":3,"el":53.0,"az":320.0,"ss":13.0,"used":false,"gnssid":0,"svid":3,"health":1},{"PRN":4,"el":31.0,"az":269.0,"ss":20.0,"used":true,"gnssid":0,"svid":4,"health":1},{"PRN":16,"el":2.0,"az":157.0,"ss":0.0,"used":false,"gnssid":0,"svid":16,"health":1},{"PRN":17,"el":2.0,"az":297.0,"ss":0.0,"used":false,"gnssid":0,"svid":17,"health":1},{"PRN":21,"el":42.0,"az":215.0,"ss":29.0,"used":true,"gnssid":0,"svid":21,"health":1},{"PRN":22,"el":41.0,"az":52.0,"ss":34.0,"used":true,"gnssid":0,"svid":22,"health":1},{"PRN":25,"el":6.0,"az":41.0,"ss":27.0,"used":true,"gnssid":0,"svid":25,"health":1},{"PRN":26,"el":20.0,"az":133.0,"ss":32.0,"used":true,"gnssid":0,"svid":26,"health":1},{"PRN":31,"el":58.0,"az":65.0,"ss":43.0,"used":true,"gnssid":0,"svid":31,"health":1},{"PRN":32,"el":15.0,"az":67.0,"ss":34.0,"used":true,"gnssid":0,"svid":32,"health":1},{"PRN":46,"el":46.0,"az":192.0,"ss":34.0,"used":true,"gnssid":1,"svid":133,"health":1},{"PRN":48,"el":47.0,"az":185.0,"ss":30.0,"used":true,"gnssid":1,"svid":135,"health":1},{"PRN":51,"el":44.0,"az":157.0,"ss":0.0,"used":false,"gnssid":1,"svid":138,"health":1},{"PRN":194,"az":0.0,"ss":0.0,"used":false,"gnssid":5,"svid":2,"health":1},{"PRN":195,"az":0.0,"ss":0.0,"used":false,"gnssid":5,"svid":3,"health":1},{"PRN":197,"az":0.0,"ss":0.0,"used":false,"gnssid":5,"svid":5,"health":1}]}
{"class":"PPS","device":"/dev/pps0","real_sec":1666297986,"real_nsec":0,"clock_sec":1666297985,"clock_nsec":999998449,"precision":-20}
{"class":"TPV","device":"/dev/ttyACM0","status":2,"mode":3,"time":"2022-10-20T20:33:06.000Z","leapseconds":18,"ept":0.005,"lat":37.270564937,"lon":-121.771497228,"altHAE":177.4042,"altMSL":209.3529,"alt":209.3529,"epx":2.657,"epy":2.800,"epv":10.079,"track":306.2339,"magtrack":319.2934,"magvar":13.1,"speed":0.170,"climb":-0.083,"eps":0.50,"epc":20.16,"ecefx":-2675849.78,"ecefy":-4320499.01,"ecefz":3841444.42,"ecefvx":-0.05,"ecefvy":0.14,"ecefvz":0.01,"ecefpAcc":7.31,"ecefvAcc":0.50,"velN":0.101,"velE":-0.137,"velD":0.083,"geoidSep":-31.949,"eph":4.818,"sep":9.620}
{"class":"SKY","device":"/dev/ttyACM0","time":"2022-10-20T20:33:06.000Z","xdop":0.71,"ydop":0.75,"vdop":1.63,"tdop":0.97,"hdop":1.03,"gdop":2.16,"pdop":1.93,"nSat":17,"uSat":9,"satellites":[{"PRN":1,"el":54.0,"az":245.0,"ss":0.0,"used":false,"gnssid":0,"svid":1,"health":1},{"PRN":3,"el":53.0,"az":320.0,"ss":14.0,"used":false,"gnssid":0,"svid":3,"health":1},{"PRN":4,"el":31.0,"az":269.0,"ss":21.0,"used":true,"gnssid":0,"svid":4,"health":1},{"PRN":16,"el":2.0,"az":157.0,"ss":0.0,"used":false,"gnssid":0,"svid":16,"health":1},{"PRN":17,"el":2.0,"az":297.0,"ss":0.0,"used":false,"gnssid":0,"svid":17,"health":1},{"PRN":21,"el":42.0,"az":215.0,"ss":29.0,"used":true,"gnssid":0,"svid":21,"health":1},{"PRN":22,"el":41.0,"az":52.0,"ss":34.0,"used":true,"gnssid":0,"svid":22,"health":1},{"PRN":25,"el":6.0,"az":41.0,"ss":27.0,"used":true,"gnssid":0,"svid":25,"health":1},{"PRN":26,"el":20.0,"az":133.0,"ss":32.0,"used":true,"gnssid":0,"svid":26,"health":1},{"PRN":31,"el":58.0,"az":65.0,"ss":43.0,"used":true,"gnssid":0,"svid":31,"health":1},{"PRN":32,"el":15.0,"az":67.0,"ss":34.0,"used":true,"gnssid":0,"svid":32,"health":1},{"PRN":46,"el":46.0,"az":192.0,"ss":34.0,"used":true,"gnssid":1,"svid":133,"health":1},{"PRN":48,"el":47.0,"az":185.0,"ss":30.0,"used":true,"gnssid":1,"svid":135,"health":1},{"PRN":51,"el":44.0,"az":157.0,"ss":0.0,"used":false,"gnssid":1,"svid":138,"health":1},{"PRN":194,"az":0.0,"ss":0.0,"used":false,"gnssid":5,"svid":2,"health":1},{"PRN":195,"az":0.0,"ss":0.0,"used":false,"gnssid":5,"svid":3,"health":1},{"PRN":197,"az":0.0,"ss":0.0,"used":false,"gnssid":5,"svid":5,"health":1}]}
{"class":"TPV","device":"/dev/ttyACM0","status":2,"mode":3,"time":"2022-10-20T20:33:06.000Z","leapseconds":18,"ept":0.005,"lat":37.270564937,"lon":-121.771497228,"altHAE":177.4042,"altMSL":209.3529,"alt":209.3529,"epx":2.657,"epy":2.800,"epv":10.079,"track":306.2339,"magtrack":319.2934,"magvar":13.1,"speed":0.170,"climb":-0.083,"eps":5.60,"epc":20.16,"ecefx":-2675849.78,"ecefy":-4320499.01,"ecefz":3841444.42,"ecefvx":-0.05,"ecefvy":0.14,"ecefvz":0.01,"ecefpAcc":7.31,"ecefvAcc":0.50,"velN":0.101,"velE":-0.137,"velD":0.083,"geoidSep":-31.949,"eph":4.818,"sep":9.620}
{"class":"PPS","device":"/dev/pps0","real_sec":1666297987,"real_nsec":0,"clock_sec":1666297987,"clock_nsec":1494,"precision":-20}
{"class":"TPV","device":"/dev/ttyACM0","status":2,"mode":3,"time":"2022-10-20T20:33:07.000Z","leapseconds":18,"ept":0.005,"lat":37.270564937,"lon":-121.771497228,"altHAE":177.4042,"altMSL":209.3529,"alt":209.3529,"epx":2.657,"epy":2.800,"epv":10.079,"track":306.2339,"magtrack":319.2934,"magvar":13.1,"speed":0.170,"climb":-0.083,"eps":0.49,"epc":20.16,"ecefx":-2675849.84,"ecefy":-4320498.89,"ecefz":3841444.51,"ecefvx":-0.02,"ecefvy":0.08,"ecefvz":-0.01,"ecefpAcc":7.27,"ecefvAcc":0.49,"velN":0.101,"velE":-0.137,"velD":0.083,"geoidSep":-31.949,"eph":4.818,"sep":9.620}
{"class":"SKY","device":"/dev/ttyACM0","time":"2022-10-20T20:33:07.000Z","xdop":0.71,"ydop":0.75,"vdop":1.63,"tdop":0.97,"hdop":1.03,"gdop":2.16,"pdop":1.93,"nSat":17,"uSat":9,"satellites":[{"PRN":1,"el":54.0,"az":245.0,"ss":0.0,"used":false,"gnssid":0,"svid":1,"health":1},{"PRN":3,"el":53.0,"az":320.0,"ss":15.0,"used":false,"gnssid":0,"svid":3,"health":1},{"PRN":4,"el":31.0,"az":269.0,"ss":22.0,"used":true,"gnssid":0,"svid":4,"health":1},{"PRN":16,"el":2.0,"az":157.0,"ss":0.0,"used":false,"gnssid":0,"svid":16,"health":1},{"PRN":17,"el":2.0,"az":297.0,"ss":0.0,"used":false,"gnssid":0,"svid":17,"health":1},{"PRN":21,"el":42.0,"az":215.0,"ss":29.0,"used":true,"gnssid":0,"svid":21,"health":1},{"PRN":22,"el":41.0,"az":52.0,"ss":33.0,"used":true,"gnssid":0,"svid":22,"health":1},{"PRN":25,"el":6.0,"az":41.0,"ss":27.0,"used":true,"gnssid":0,"svid":25,"health":1},{"PRN":26,"el":20.0,"az":133.0,"ss":32.0,"used":true,"gnssid":0,"svid":26,"health":1},{"PRN":31,"el":58.0,"az":65.0,"ss":42.0,"used":true,"gnssid":0,"svid":31,"health":1},{"PRN":32,"el":15.0,"az":67.0,"ss":34.0,"used":true,"gnssid":0,"svid":32,"health":1},{"PRN":46,"el":46.0,"az":192.0,"ss":34.0,"used":true,"gnssid":1,"svid":133,"health":1},{"PRN":48,"el":47.0,"az":185.0,"ss":30.0,"used":true,"gnssid":1,"svid":135,"health":1},{"PRN":51,"el":44.0,"az":157.0,"ss":0.0,"used":false,"gnssid":1,"svid":138,"health":1},{"PRN":194,"az":0.0,"ss":0.0,"used":false,"gnssid":5,"svid":2,"health":1},{"PRN":195,"az":0.0,"ss":0.0,"used":false,"gnssid":5,"svid":3,"health":1},{"PRN":197,"az":0.0,"ss":0.0,"used":false,"gnssid":5,"svid":5,"health":1}]}
{"class":"PPS","device":"/dev/pps0","real_sec":1666297988,"real_nsec":0,"clock_sec":1666297987,"clock_nsec":999998280,"precision":-20}
{"class":"TPV","device":"/dev/ttyACM0","status":2,"mode":3,"time":"2022-10-20T20:33:08.000Z","leapseconds":18,"ept":0.005,"lat":37.270564937,"lon":-121.771497228,"altHAE":177.4042,"altMSL":209.3529,"alt":209.3529,"epx":2.657,"epy":2.800,"epv":10.079,"track":306.2339,"magtrack":319.2934,"magvar":13.1,"speed":0.170,"climb":-0.083,"eps":0.51,"epc":20.16,"ecefx":-2675849.89,"ecefy":-4320498.85,"ecefz":3841444.62,"ecefvx":0.04,"ecefvy":-0.08,"ecefvz":-0.03,"ecefpAcc":7.22,"ecefvAcc":0.51,"velN":0.101,"velE":-0.137,"velD":0.083,"geoidSep":-31.949,"eph":4.818,"sep":9.620}
{"class":"SKY","device":"/dev/ttyACM0","time":"2022-10-20T20:33:08.000Z","xdop":0.71,"ydop":0.75,"vdop":1.63,"tdop":0.97,"hdop":1.03,"gdop":2.16,"pdop":1.93,"nSat":17,"uSat":9,"satellites":[{"PRN":1,"el":54.0,"az":245.0,"ss":0.0,"used":false,"gnssid":0,"svid":1,"health":1},{"PRN":3,"el":53.0,"az":320.0,"ss":17.0,"used":false,"gnssid":0,"svid":3,"health":1},{"PRN":4,"el":31.0,"az":269.0,"ss":23.0,"used":true,"gnssid":0,"svid":4,"health":1},{"PRN":16,"el":2.0,"az":157.0,"ss":0.0,"used":false,"gnssid":0,"svid":16,"health":1},{"PRN":17,"el":2.0,"az":297.0,"ss":0.0,"used":false,"gnssid":0,"svid":17,"health":1},{"PRN":21,"el":42.0,"az":215.0,"ss":29.0,"used":true,"gnssid":0,"svid":21,"health":1},{"PRN":22,"el":41.0,"az":52.0,"ss":33.0,"used":true,"gnssid":0,"svid":22,"health":1},{"PRN":25,"el":6.0,"az":41.0,"ss":27.0,"used":true,"gnssid":0,"svid":25,"health":1},{"PRN":26,"el":20.0,"az":133.0,"ss":32.0,"used":true,"gnssid":0,"svid":26,"health":1},{"PRN":31,"el":58.0,"az":65.0,"ss":42.0,"used":true,"gnssid":0,"svid":31,"health":1},{"PRN":32,"el":15.0,"az":67.0,"ss":34.0,"used":true,"gnssid":0,"svid":32,"health":1},{"PRN":46,"el":46.0,"az":192.0,"ss":34.0,"used":true,"gnssid":1,"svid":133,"health":1},{"PRN":48,"el":47.0,"az":185.0,"ss":30.0,"used":true,"gnssid":1,"svid":135,"health":1},{"PRN":51,"el":44.0,"az":157.0,"ss":0.0,"used":false,"gnssid":1,"svid":138,"health":1},{"PRN":194,"az":0.0,"ss":0.0,"used":false,"gnssid":5,"svid":2,"health":1},{"PRN":195,"az":0.0,"ss":0.0,"used":false,"gnssid":5,"svid":3,"health":1},{"PRN":197,"az":0.0,"ss":0.0,"used":false,"gnssid":5,"svid":5,"health":1}]}
{"class":"TPV","device":"/dev/ttyACM0","status":2,"mode":3,"time":"2022-10-20T20:33:08.000Z","leapseconds":18,"ept":0.005,"lat":37.270564937,"lon":-121.771497228,"altHAE":177.4042,"altMSL":209.3529,"alt":209.3529,"epx":2.657,"epy":2.800,"epv":10.079,"track":306.2339,"magtrack":319.2934,"magvar":13.1,"speed":0.170,"climb":-0.083,"eps":5.60,"epc":20.16,"ecefx":-2675849.89,"ecefy":-4320498.85,"ecefz":3841444.62,"ecefvx":0.04,"ecefvy":-0.08,"ecefvz":-0.03,"ecefpAcc":7.22,"ecefvAcc":0.51,"velN":0.101,"velE":-0.137,"velD":0.083,"geoidSep":-31.949,"eph":4.818,"sep":9.620}
{"class":"PPS","device":"/dev/pps0","real_sec":1666297989,"real_nsec":0,"clock_sec":1666297989,"clock_nsec":2307,"precision":-20}
{"class":"TPV","device":"/dev/ttyACM0","status":2,"mode":3,"time":"2022-10-20T20:33:09.000Z","leapseconds":18,"ept":0.005,"lat":37.270564937,"lon":-121.771497228,"altHAE":177.4042,"altMSL":209.3529,"alt":209.3529,"epx":2.657,"epy":2.800,"epv":10.079,"track":306.2339,"magtrack":319.2934,"magvar":13.1,"speed":0.170,"climb":-0.083,"eps":0.47,"epc":20.16,"ecefx":-2675849.92,"ecefy":-4320498.79,"ecefz":3841444.72,"ecefvx":0.02,"ecefvy":-0.10,"ecefvz":0.02,"ecefpAcc":7.18,"ecefvAcc":0.47,"velN":0.101,"velE":-0.137,"velD":0.083,"geoidSep":-31.949,"eph":4.818,"sep":9.620}
{"class":"SKY","device":"/dev/ttyACM0","time":"2022-10-20T20:33:09.000Z","xdop":0.71,"ydop":0.75,"vdop":1.63,"tdop":0.97,"hdop":1.03,"gdop":2.16,"pdop":1.93,"nSat":17,"uSat":9,"satellites":[{"PRN":1,"el":54.0,"az":245.0,"ss":0.0,"used":false,"gnssid":0,"svid":1,"health":1},{"PRN":3,"el":53.0,"az":320.0,"ss":16.0,"used":false,"gnssid":0,"svid":3,"health":1},{"PRN":4,"el":31.0,"az":269.0,"ss":23.0,"used":true,"gnssid":0,"svid":4,"health":1},{"PRN":16,"el":2.0,"az":157.0,"ss":0.0,"used":false,"gnssid":0,"svid":16,"health":1},{"PRN":17,"el":2.0,"az":297.0,"ss":0.0,"used":false,"gnssid":0,"svid":17,"health":1},{"PRN":21,"el":42.0,"az":215.0,"ss":28.0,"used":true,"gnssid":0,"svid":21,"health":1},{"PRN":22,"el":41.0,"az":52.0,"ss":33.0,"used":true,"gnssid":0,"svid":22,"health":1},{"PRN":25,"el":6.0,"az":41.0,"ss":27.0,"used":true,"gnssid":0,"svid":25,"health":1},{"PRN":26,"el":20.0,"az":133.0,"ss":32.0,"used":true,"gnssid":0,"svid":26,"health":1},{"PRN":31,"el":58.0,"az":65.0,"ss":42.0,"used":true,"gnssid":0,"svid":31,"health":1},{"PRN":32,"el":15.0,"az":67.0,"ss":34.0,"used":true,"gnssid":0,"svid":32,"health":1},{"PRN":46,"el":46.0,"az":192.0,"ss":34.0,"used":true,"gnssid":1,"svid":133,"health":1},{"PRN":48,"el":47.0,"az":185.0,"ss":30.0,"used":true,"gnssid":1,"svid":135,"health":1},{"PRN":51,"el":44.0,"az":157.0,"ss":0.0,"used":false,"gnssid":1,"svid":138,"health":1},{"PRN":194,"az":0.0,"ss":0.0,"used":false,"gnssid":5,"svid":2,"health":1},{"PRN":195,"az":0.0,"ss":0.0,"used":false,"gnssid":5,"svid":3,"health":1},{"PRN":197,"az":0.0,"ss":0.0,"used":false,"gnssid":5,"svid":5,"health":1}]}
{"class":"PPS","device":"/dev/pps0","real_sec":1666297990,"real_nsec":0,"clock_sec":1666297989,"clock_nsec":999999186,"precision":-20}
{"class":"TPV","device":"/dev/ttyACM0","status":2,"mode":3,"time":"2022-10-20T20:33:10.000Z","leapseconds":18,"ept":0.005,"lat":37.270564937,"lon":-121.771497228,"altHAE":177.4042,"altMSL":209.3529,"alt":209.3529,"epx":2.657,"epy":2.800,"epv":10.079,"track":306.2339,"magtrack":319.2934,"magvar":13.1,"speed":0.170,"climb":-0.083,"eps":0.37,"epc":20.16,"ecefx":-2675849.94,"ecefy":-4320498.78,"ecefz":3841444.81,"ecefvx":-0.02,"ecefvy":-0.03,"ecefvz":0.03,"ecefpAcc":7.15,"ecefvAcc":0.37,"velN":0.101,"velE":-0.137,"velD":0.083,"geoidSep":-31.949,"eph":4.818,"sep":9.620}
{"class":"SKY","device":"/dev/ttyACM0","time":"2022-10-20T20:33:10.000Z","xdop":0.71,"ydop":0.75,"vdop":1.63,"tdop":0.97,"hdop":1.03,"gdop":2.16,"pdop":1.93,"nSat":16,"uSat":9,"satellites":[{"PRN":1,"el":54.0,"az":245.0,"ss":0.0,"used":false,"gnssid":0,"svid":1,"health":1},{"PRN":3,"el":53.0,"az":320.0,"ss":15.0,"used":false,"gnssid":0,"svid":3,"health":1},{"PRN":4,"el":31.0,"az":269.0,"ss":23.0,"used":true,"gnssid":0,"svid":4,"health":1},{"PRN":16,"el":2.0,"az":157.0,"ss":0.0,"used":false,"gnssid":0,"svid":16,"health":1},{"PRN":17,"el":2.0,"az":297.0,"ss":0.0,"used":false,"gnssid":0,"svid":17,"health":1},{"PRN":21,"el":42.0,"az":215.0,"ss":28.0,"used":true,"gnssid":0,"svid":21,"health":1},{"PRN":22,"el":41.0,"az":52.0,"ss":33.0,"used":true,"gnssid":0,"svid":22,"health":1},{"PRN":25,"el":6.0,"az":41.0,"ss":27.0,"used":true,"gnssid":0,"svid":25,"health":1},{"PRN":26,"el":20.0,"az":133.0,"ss":32.0,"used":true,"gnssid":0,"svid":26,"health":1},{"PRN":31,"el":58.0,"az":65.0,"ss":42.0,"used":true,"gnssid":0,"svid":31,"health":1},{"PRN":32,"el":15.0,"az":67.0,"ss":34.0,"used":true,"gnssid":0,"svid":32,"health":1},{"PRN":46,"el":46.0,"az":192.0,"ss":34.0,"used":true,"gnssid":1,"svid":133,"health":1},{"PRN":48,"el":47.0,"az":185.0,"ss":30.0,"used":true,"gnssid":1,"svid":135,"health":1},{"PRN":51,"el":44.0,"az":157.0,"ss":0.0,"used":false,"gnssid":1,"svid":138,"health":1},{"PRN":194,"az":0.0,"ss":0.0,"used":false,"gnssid":5,"svid":2,"health":1},{"PRN":195,"az":0.0,"ss":0.0,"used":false,"gnssid":5,"svid":3,"health":1}]}
{"class":"TPV","device":"/dev/ttyACM0","status":2,"mode":3,"time":"2022-10-20T20:33:10.000Z","leapseconds":18,"ept":0.005,"lat":37.270564937,"lon":-121.771497228,"altHAE":177.4042,"altMSL":209.3529,"alt":209.3529,"epx":2.657,"epy":2.800,"epv":10.079,"track":306.2339,"magtrack":319.2934,"magvar":13.1,"speed":0.170,"climb":-0.083,"eps":5.60,"epc":20.16,"ecefx":-2675849.94,"ecefy":-4320498.78,"ecefz":3841444.81,"ecefvx":-0.02,"ecefvy":-0.03,"ecefvz":0.03,"ecefpAcc":7.15,"ecefvAcc":0.37,"velN":0.101,"velE":-0.137,"velD":0.083,"geoidSep":-31.949,"eph":4.818,"sep":9.620}
{"class":"PPS","device":"/dev/pps0","real_sec":1666297991,"real_nsec":0,"clock_sec":1666297991,"clock_nsec":1435,"precision":-20}
{"class":"TPV","device":"/dev/ttyACM0","status":2,"mode":3,"time":"2022-10-20T20:33:11.000Z","leapseconds":18,"ept":0.005,"lat":37.270564937,"lon":-121.771497228,"altHAE":177.4042,"altMSL":209.3529,"alt":209.3529,"epx":2.657,"epy":2.800,"epv":10.079,"track":306.2339,"magtrack":319.2934,"magvar":13.1,"speed":0.170,"climb":-0.083,"eps":0.50,"epc":20.16,"ecefx":-2675849.97,"ecefy":-4320498.78,"ecefz":3841444.96,"ecefvx":-0.03,"ecefvy":0.03,"ecefvz":0.03,"ecefpAcc":7.11,"ecefvAcc":0.50,"velN":0.101,"velE":-0.137,"velD":0.083,"geoidSep":-31.949,"eph":4.818,"sep":9.620}
{"class":"SKY","device":"/dev/ttyACM0","time":"2022-10-20T20:33:11.000Z","xdop":0.71,"ydop":0.75,"vdop":1.63,"tdop":0.97,"hdop":1.03,"gdop":2.16,"pdop":1.93,"nSat":17,"uSat":9,"satellites":[{"PRN":1,"el":54.0,"az":245.0,"ss":0.0,"used":false,"gnssid":0,"svid":1,"health":1},{"PRN":3,"el":53.0,"az":320.0,"ss":13.0,"used":false,"gnssid":0,"svid":3,"health":1},{"PRN":4,"el":31.0,"az":269.0,"ss":23.0,"used":true,"gnssid":0,"svid":4,"health":1},{"PRN":16,"el":2.0,"az":157.0,"ss":0.0,"used":false,"gnssid":0,"svid":16,"health":1},{"PRN":17,"el":2.0,"az":297.0,"ss":0.0,"used":false,"gnssid":0,"svid":17,"health":1},{"PRN":21,"el":42.0,"az":215.0,"ss":29.0,"used":true,"gnssid":0,"svid":21,"health":1},{"PRN":22,"el":41.0,"az":52.0,"ss":33.0,"used":true,"gnssid":0,"svid":22,"health":1},{"PRN":25,"el":6.0,"az":41.0,"ss":26.0,"used":true,"gnssid":0,"svid":25,"health":1},{"PRN":26,"el":20.0,"az":133.0,"ss":32.0,"used":true,"gnssid":0,"svid":26,"health":1},{"PRN":31,"el":58.0,"az":65.0,"ss":42.0,"used":true,"gnssid":0,"svid":31,"health":1},{"PRN":32,"el":15.0,"az":67.0,"ss":34.0,"used":true,"gnssid":0,"svid":32,"health":1},{"PRN":46,"el":46.0,"az":192.0,"ss":34.0,"used":true,"gnssid":1,"svid":133,"health":1},{"PRN":48,"el":47.0,"az":185.0,"ss":30.0,"used":true,"gnssid":1,"svid":135,"health":1},{"PRN":51,"el":44.0,"az":157.0,"ss":0.0,"used":false,"gnssid":1,"svid":138,"health":1},{"PRN":193,"az":0.0,"ss":0.0,"used":false,"gnssid":5,"svid":1,"health":1},{"PRN":194,"az":0.0,"ss":0.0,"used":false,"gnssid":5,"svid":2,"health":1},{"PRN":195,"az":0.0,"ss":0.0,"used":false,"gnssid":5,"svid":3,"health":1}]}
{"class":"PPS","device":"/dev/pps0","real_sec":1666297992,"real_nsec":0,"clock_sec":1666297991,"clock_nsec":999998498,"precision":-20}
{"class":"TPV","device":"/dev/ttyACM0","status":2,"mode":3,"time":"2022-10-20T20:33:12.000Z","leapseconds":18,"ept":0.005,"lat":37.270564937,"lon":-121.771497228,"altHAE":177.4042,"altMSL":209.3529,"alt":209.3529,"epx":2.657,"epy":2.800,"epv":10.079,"track":306.2339,"magtrack":319.2934,"magvar":13.1,"speed":0.170,"climb":-0.083,"eps":0.33,"epc":20.16,"ecefx":-2675850.02,"ecefy":-4320498.61,"ecefz":3841445.01,"ecefvx":-0.03,"ecefvy":-0.03,"ecefvz":0.01,"ecefpAcc":7.08,"ecefvAcc":0.33,"velN":0.101,"velE":-0.137,"velD":0.083,"geoidSep":-31.949,"eph":4.818,"sep":9.620}
{"class":"SKY","device":"/dev/ttyACM0","time":"2022-10-20T20:33:12.000Z","xdop":0.71,"ydop":0.75,"vdop":1.63,"tdop":0.97,"hdop":1.03,"gdop":2.16,"pdop":1.93,"nSat":17,"uSat":9,"satellites":[{"PRN":1,"el":54.0,"az":245.0,"ss":0.0,"used":false,"gnssid":0,"svid":1,"health":1},{"PRN":3,"el":53.0,"az":320.0,"ss":14.0,"used":false,"gnssid":0,"svid":3,"health":1},{"PRN":4,"el":31.0,"az":269.0,"ss":23.0,"used":true,"gnssid":0,"svid":4,"health":1},{"PRN":16,"el":2.0,"az":157.0,"ss":0.0,"used":false,"gnssid":0,"svid":16,"health":1},{"PRN":17,"el":2.0,"az":297.0,"ss":0.0,"used":false,"gnssid":0,"svid":17,"health":1},{"PRN":21,"el":42.0,"az":215.0,"ss":28.0,"used":true,"gnssid":0,"svid":21,"health":1},{"PRN":22,"el":41.0,"az":52.0,"ss":33.0,"used":true,"gnssid":0,"svid":22,"health":1},{"PRN":25,"el":6.0,"az":41.0,"ss":27.0,"used":true,"gnssid":0,"svid":25,"health":1},{"PRN":26,"el":20.0,"az":133.0,"ss":32.0,"used":true,"gnssid":0,"svid":26,"health":1},{"PRN":31,"el":58.0,"az":65.0,"ss":42.0,"used":true,"gnssid":0,"svid":31,"health":1},{"PRN":32,"el":15.0,"az":67.0,"ss":34.0,"used":true,"gnssid":0,"svid":32,"health":1},{"PRN":46,"el":46.0,"az":192.0,"ss":34.0,"used":true,"gnssid":1,"svid":133,"health":1},{"PRN":48,"el":47.0,"az":185.0,"ss":30.0,"used":true,"gnssid":1,"svid":135,"health":1},{"PRN":51,"el":44.0,"az":157.0,"ss":0.0,"used":false,"gnssid":1,"svid":138,"health":1},{"PRN":193,"az":0.0,"ss":0.0,"used":false,"gnssid":5,"svid":1,"health":1},{"PRN":194,"az":0.0,"ss":0.0,"used":false,"gnssid":5,"svid":2,"health":1},{"PRN":195,"az":0.0,"ss":0.0,"used":false,"gnssid":5,"svid":3,"health":1}]}
{"class":"TPV","device":"/dev/ttyACM0","status":2,"mode":3,"time":"2022-10-20T20:33:12.000Z","leapseconds":18,"ept":0.005,"lat":37.270564937,"lon":-121.771497228,"altHAE":177.4042,"altMSL":209.3529,"alt":209.3529,"epx":2.657,"epy":2.800,"epv":10.079,"track":306.2339,"magtrack":319.2934,"magvar":13.1,"speed":0.170,"climb":-0.083,"eps":5.60,"epc":20.16,"ecefx":-2675850.02,"ecefy":-4320498.61,"ecefz":3841445.01,"ecefvx":-0.03,"ecefvy":-0.03,"ecefvz":0.01,"ecefpAcc":7.08,"ecefvAcc":0.33,"velN":0.101,"velE":-0.137,"velD":0.083,"geoidSep":-31.949,"eph":4.818,"sep":9.620}
{"class":"PPS","device":"/dev/pps0","real_sec":1666297993,"real_nsec":0,"clock_sec":1666297993,"clock_nsec":3951,"precision":-20}
{"class":"TPV","device":"/dev/ttyACM0","status":2,"mode":3,"time":"2022-10-20T20:33:13.000Z","leapseconds":18,"ept":0.005,"lat":37.270564937,"lon":-121.771497228,"altHAE":177.4042,"altMSL":209.3529,"alt":209.3529,"epx":2.657,"epy":2.800,"epv":10.079,"track":306.2339,"magtrack":319.2934,"magvar":13.1,"speed":0.170,"climb":-0.083,"eps":0.48,"epc":20.16,"ecefx":-2675850.07,"ecefy":-4320498.44,"ecefz":3841445.05,"ecefvx":0.03,"ecefvy":-0.13,"ecefvz":0.01,"ecefpAcc":7.05,"ecefvAcc":0.48,"velN":0.101,"velE":-0.137,"velD":0.083,"geoidSep":-31.949,"eph":4.818,"sep":9.620}
{"class":"SKY","device":"/dev/ttyACM0","time":"2022-10-20T20:33:13.000Z","xdop":0.71,"ydop":0.75,"vdop":1.63,"tdop":0.97,"hdop":1.03,"gdop":2.16,"pdop":1.93,"nSat":17,"uSat":9,"satellites":[{"PRN":1,"el":54.0,"az":245.0,"ss":0.0,"used":false,"gnssid":0,"svid":1,"health":1},{"PRN":3,"el":53.0,"az":320.0,"ss":15.0,"used":false,"gnssid":0,"svid":3,"health":1},{"PRN":4,"el":31.0,"az":269.0,"ss":24.0,"used":true,"gnssid":0,"svid":4,"health":1},{"PRN":16,"el":2.0,"az":157.0,"ss":0.0,"used":false,"gnssid":0,"svid":16,"health":1},{"PRN":17,"el":2.0,"az":297.0,"ss":0.0,"used":false,"gnssid":0,"svid":17,"health":1},{"PRN":21,"el":42.0,"az":215.0,"ss":28.0,"used":true,"gnssid":0,"svid":21,"health":1},{"PRN":22,"el":41.0,"az":52.0,"ss":32.0,"used":true,"gnssid":0,"svid":22,"health":1},{"PRN":25,"el":6.0,"az":41.0,"ss":27.0,"used":true,"gnssid":0,"svid":25,"health":1},{"PRN":26,"el":20.0,"az":133.0,"ss":32.0,"used":true,"gnssid":0,"svid":26,"health":1},{"PRN":31,"el":58.0,"az":65.0,"ss":42.0,"used":true,"gnssid":0,"svid":31,"health":1},{"PRN":32,"el":15.0,"az":67.0,"ss":34.0,"used":true,"gnssid":0,"svid":32,"health":1},{"PRN":46,"el":46.0,"az":192.0,"ss":34.0,"used":true,"gnssid":1,"svid":133,"health":1},{"PRN":48,"el":47.0,"az":185.0,"ss":30.0,"used":true,"gnssid":1,"svid":135,"health":1},{"PRN":51,"el":44.0,"az":157.0,"ss":0.0,"used":false,"gnssid":1,"svid":138,"health":1},{"PRN":193,"az":0.0,"ss":0.0,"used":false,"gnssid":5,"svid":1,"health":1},{"PRN":194,"az":0.0,"ss":0.0,"used":false,"gnssid":5,"svid":2,"health":1},{"PRN":195,"az":0.0,"ss":0.0,"used":false,"gnssid":5,"svid":3,"health":1}]}
{"class":"PPS","device":"/dev/pps0","real_sec":1666297994,"real_nsec":0,"clock_sec":1666297993,"clock_nsec":999999016,"precision":-20}
{"class":"TPV","device":"/dev/ttyACM0","status":2,"mode":3,"time":"2022-10-20T20:33:14.000Z","leapseconds":18,"ept":0.005,"lat":37.270564937,"lon":-121.771497228,"altHAE":177.4042,"altMSL":209.3529,"alt":209.3529,"epx":2.657,"epy":2.800,"epv":10.079,"track":306.2339,"magtrack":319.2934,"magvar":13.1,"speed":0.170,"climb":-0.083,"eps":0.45,"epc":20.16,"ecefx":-2675850.03,"ecefy":-4320498.30,"ecefz":3841445.01,"ecefvx":0.01,"ecefvy":-0.07,"ecefvz":0.03,"ecefpAcc":7.01,"ecefvAcc":0.45,"velN":0.101,"velE":-0.137,"velD":0.083,"geoidSep":-31.949,"eph":4.818,"sep":9.620}
{"class":"SKY","device":"/dev/ttyACM0","time":"2022-10-20T20:33:14.000Z","xdop":0.67,"ydop":0.64,"vdop":1.63,"tdop":0.97,"hdop":1.03,"gdop":2.16,"pdop":1.93,"nSat":16,"uSat":10,"satellites":[{"PRN":1,"el":54.0,"az":245.0,"ss":0.0,"used":false,"gnssid":0,"svid":1,"health":1},{"PRN":3,"el":53.0,"az":320.0,"ss":16.0,"used":true,"gnssid":0,"svid":3,"health":1},{"PRN":4,"el":31.0,"az":269.0,"ss":25.0,"used":true,"gnssid":0,"svid":4,"health":1},{"PRN":16,"el":2.0,"az":157.0,"ss":0.0,"used":false,"gnssid":0,"svid":16,"health":1},{"PRN":17,"el":2.0,"az":297.0,"ss":0.0,"used":false,"gnssid":0,"svid":17,"health":1},{"PRN":21,"el":42.0,"az":215.0,"ss":28.0,"used":true,"gnssid":0,"svid":21,"health":1},{"PRN":22,"el":41.0,"az":52.0,"ss":32.0,"used":true,"gnssid":0,"svid":22,"health":1},{"PRN":25,"el":6.0,"az":41.0,"ss":27.0,"used":true,"gnssid":0,"svid":25,"health":1},{"PRN":26,"el":20.0,"az":133.0,"ss":32.0,"used":true,"gnssid":0,"svid":26,"health":1},{"PRN":31,"el":58.0,"az":65.0,"ss":42.0,"used":true,"gnssid":0,"svid":31,"health":1},{"PRN":32,"el":15.0,"az":67.0,"ss":34.0,"used":true,"gnssid":0,"svid":32,"health":1},{"PRN":46,"el":46.0,"az":192.0,"ss":34.0,"used":true,"gnssid":1,"svid":133,"health":1},{"PRN":48,"el":47.0,"az":185.0,"ss":30.0,"used":true,"gnssid":1,"svid":135,"health":1},{"PRN":51,"el":44.0,"az":157.0,"ss":0.0,"used":false,"gnssid":1,"svid":138,"health":1},{"PRN":193,"az":0.0,"ss":0.0,"used":false,"gnssid":5,"svid":1,"health":1},{"PRN":195,"az":0.0,"ss":0.0,"used":false,"gnssid":5,"svid":3,"health":1}]}
{"class":"TPV","device":"/dev/ttyACM0","status":2,"mode":3,"time":"2022-10-20T20:33:14.000Z","leapseconds":18,"ept":0.005,"lat":37.270564937,"lon":-121.771497228,"altHAE":177.4042,"altMSL":209.3529,"alt":209.3529,"epx":2.500,"epy":2.390,"epv":10.079,"track":306.2339,"magtrack":319.2934,"magvar":13.1,"speed":0.170,"climb":-0.083,"eps":5.30,"epc":20.16,"ecefx":-2675850.03,"ecefy":-4320498.30,"ecefz":3841445.01,"ecefvx":0.01,"ecefvy":-0.07,"ecefvz":0.03,"ecefpAcc":7.01,"ecefvAcc":0.45,"velN":0.101,"velE":-0.137,"velD":0.083,"geoidSep":-31.949,"eph":4.818,"sep":9.620}
{"class":"PPS","device":"/dev/pps0","real_sec":1666297995,"real_nsec":0,"clock_sec":1666297995,"clock_nsec":1802,"precision":-20}
{"class":"TPV","device":"/dev/ttyACM0","status":2,"mode":3,"time":"2022-10-20T20:33:15.000Z","leapseconds":18,"ept":0.005,"lat":37.270564937,"lon":-121.771497228,"altHAE":177.4042,"altMSL":209.3529,"alt":209.3529,"epx":2.500,"epy":2.390,"epv":10.079,"track":306.2339,"magtrack":319.2934,"magvar":13.1,"speed":0.170,"climb":-0.083,"eps":0.47,"epc":20.16,"ecefx":-2675850.03,"ecefy":-4320498.19,"ecefz":3841445.02,"ecefvx":-0.04,"ecefvy":0.05,"ecefvz":0.00,"ecefpAcc":6.98,"ecefvAcc":0.47,"velN":0.101,"velE":-0.137,"velD":0.083,"geoidSep":-31.949,"eph":4.818,"sep":9.620}
{"class":"SKY","device":"/dev/ttyACM0","time":"2022-10-20T20:33:15.000Z","xdop":0.71,"ydop":0.75,"vdop":1.54,"tdop":0.97,"hdop":0.92,"gdop":2.04,"pdop":1.80,"nSat":17,"uSat":9,"satellites":[{"PRN":1,"el":54.0,"az":245.0,"ss":0.0,"used":false,"gnssid":0,"svid":1,"health":1},{"PRN":3,"el":53.0,"az":320.0,"ss":17.0,"used":false,"gnssid":0,"svid":3,"health":1},{"PRN":4,"el":31.0,"az":269.0,"ss":25.0,"used":true,"gnssid":0,"svid":4,"health":1},{"PRN":16,"el":2.0,"az":157.0,"ss":0.0,"used":false,"gnssid":0,"svid":16,"health":1},{"PRN":17,"el":2.0,"az":297.0,"ss":0.0,"used":false,"gnssid":0,"svid":17,"health":1},{"PRN":21,"el":42.0,"az":215.0,"ss":28.0,"used":true,"gnssid":0,"svid":21,"health":1},{"PRN":22,"el":41.0,"az":52.0,"ss":32.0,"used":true,"gnssid":0,"svid":22,"health":1},{"PRN":25,"el":6.0,"az":41.0,"ss":27.0,"used":true,"gnssid":0,"svid":25,"health":1},{"PRN":26,"el":20.0,"az":133.0,"ss":32.0,"used":true,"gnssid":0,"svid":26,"health":1},{"PRN":31,"el":58.0,"az":65.0,"ss":42.0,"used":true,"gnssid":0,"svid":31,"health":1},{"PRN":32,"el":15.0,"az":67.0,"ss":34.0,"used":true,"gnssid":0,"svid":32,"health":1},{"PRN":46,"el":46.0,"az":192.0,"ss":34.0,"used":true,"gnssid":1,"svid":133,"health":1},{"PRN":48,"el":47.0,"az":185.0,"ss":30.0,"used":true,"gnssid":1,"svid":135,"health":1},{"PRN":51,"el":44.0,"az":157.0,"ss":0.0,"used":false,"gnssid":1,"svid":138,"health":1},{"PRN":193,"az":0.0,"ss":0.0,"used":false,"gnssid":5,"svid":1,"health":1},{"PRN":195,"az":0.0,"ss":0.0,"used":false,"gnssid":5,"svid":3,"health":1},{"PRN":196,"az":0.0,"ss":0.0,"used":false,"gnssid":5,"svid":4,"health":1}]}
